<?xml version="1.0" encoding="UTF-8"?>
<kml xmlns="http://earth.google.com/kml/2.1">
<Document>
	<name><![CDATA[Category:Railway stations in Zürich]]></name>
	<open>1</open>
		<Placemark>
			<name><![CDATA[Stettbach railway station]]></name>
			<Point>
				<coordinates>8.5961,47.3972,0</coordinates>
			</Point>
			<Snippet></Snippet>
			<description><![CDATA[<br>Source: Wikipedia article <a href="https://en.wikipedia.org/wiki/Stettbach_railway_station">Stettbach railway station</a>]]></description>
		</Placemark>
		<Placemark>
			<name><![CDATA[Zürich Affoltern railway station]]></name>
			<Point>
				<coordinates>8.508241,47.421014,0</coordinates>
			</Point>
			<Snippet></Snippet>
			<description><![CDATA[<br>Source: Wikipedia article <a href="https://en.wikipedia.org/wiki/Zürich_Affoltern_railway_station">Zürich Affoltern railway station</a>]]></description>
		</Placemark>
		<Placemark>
			<name><![CDATA[Zürich Altstetten railway station]]></name>
			<Point>
				<coordinates>8.48916666666667,47.3916666666667,0</coordinates>
			</Point>
			<Snippet></Snippet>
			<description><![CDATA[<br>Source: Wikipedia article <a href="https://en.wikipedia.org/wiki/Zürich_Altstetten_railway_station">Zürich Altstetten railway station</a>]]></description>
		</Placemark>
		<Placemark>
			<name><![CDATA[Zürich Binz railway station]]></name>
			<Point>
				<coordinates>8.517945,47.362846,0</coordinates>
			</Point>
			<Snippet></Snippet>
			<description><![CDATA[<br>Source: Wikipedia article <a href="https://en.wikipedia.org/wiki/Zürich_Binz_railway_station">Zürich Binz railway station</a>]]></description>
		</Placemark>
		<Placemark>
			<name><![CDATA[Zürich Brunau railway station]]></name>
			<Point>
				<coordinates>8.526496,47.351952,0</coordinates>
			</Point>
			<Snippet></Snippet>
			<description><![CDATA[<br>Source: Wikipedia article <a href="https://en.wikipedia.org/wiki/Zürich_Brunau_railway_station">Zürich Brunau railway station</a>]]></description>
		</Placemark>
		<Placemark>
			<name><![CDATA[Zürich Enge railway station]]></name>
			<Point>
				<coordinates>8.53194444444444,47.3652777777778,0</coordinates>
			</Point>
			<Snippet></Snippet>
			<description><![CDATA[<br>Source: Wikipedia article <a href="https://en.wikipedia.org/wiki/Zürich_Enge_railway_station">Zürich Enge railway station</a>]]></description>
		</Placemark>
		<Placemark>
			<name><![CDATA[Zürich Friesenberg railway station]]></name>
			<Point>
				<coordinates>8.508,47.3647,0</coordinates>
			</Point>
			<Snippet></Snippet>
			<description><![CDATA[<br>Source: Wikipedia article <a href="https://en.wikipedia.org/wiki/Zürich_Friesenberg_railway_station">Zürich Friesenberg railway station</a>]]></description>
		</Placemark>
		<Placemark>
			<name><![CDATA[Zürich Giesshübel railway station]]></name>
			<Point>
				<coordinates>8.52134,47.362152,0</coordinates>
			</Point>
			<Snippet></Snippet>
			<description><![CDATA[<br>Source: Wikipedia article <a href="https://en.wikipedia.org/wiki/Zürich_Giesshübel_railway_station">Zürich Giesshübel railway station</a>]]></description>
		</Placemark>
		<Placemark>
			<name><![CDATA[Zürich Hardbrücke railway station]]></name>
			<Point>
				<coordinates>8.51717,47.38514,0</coordinates>
			</Point>
			<Snippet></Snippet>
			<description><![CDATA[<br>Source: Wikipedia article <a href="https://en.wikipedia.org/wiki/Zürich_Hardbrücke_railway_station">Zürich Hardbrücke railway station</a>]]></description>
		</Placemark>
		<Placemark>
			<name><![CDATA[Zürich Hauptbahnhof]]></name>
			<Point>
				<coordinates>8.54027777777778,47.3777777777778,0</coordinates>
			</Point>
			<Snippet></Snippet>
			<description><![CDATA[<br>Source: Wikipedia article <a href="https://en.wikipedia.org/wiki/Zürich_Hauptbahnhof">Zürich Hauptbahnhof</a>]]></description>
		</Placemark>
		<Placemark>
			<name><![CDATA[Zürich Leimbach railway station]]></name>
			<Point>
				<coordinates>8.5191,47.3336,0</coordinates>
			</Point>
			<Snippet></Snippet>
			<description><![CDATA[<br>Source: Wikipedia article <a href="https://en.wikipedia.org/wiki/Zürich_Leimbach_railway_station">Zürich Leimbach railway station</a>]]></description>
		</Placemark>
		<Placemark>
			<name><![CDATA[Zürich Letten railway station]]></name>
			<Point>
				<coordinates>8.533475,47.387164,0</coordinates>
			</Point>
			<Snippet></Snippet>
			<description><![CDATA[<br>Source: Wikipedia article <a href="https://en.wikipedia.org/wiki/Zürich_Letten_railway_station">Zürich Letten railway station</a>]]></description>
		</Placemark>
		<Placemark>
			<name><![CDATA[Zürich Manegg railway station]]></name>
			<Point>
				<coordinates>8.519881,47.338216,0</coordinates>
			</Point>
			<Snippet></Snippet>
			<description><![CDATA[<br>Source: Wikipedia article <a href="https://en.wikipedia.org/wiki/Zürich_Manegg_railway_station">Zürich Manegg railway station</a>]]></description>
		</Placemark>
		<Placemark>
			<name><![CDATA[Zürich Oerlikon railway station]]></name>
			<Point>
				<coordinates>8.545,47.4127777777778,0</coordinates>
			</Point>
			<Snippet></Snippet>
			<description><![CDATA[<br>Source: Wikipedia article <a href="https://en.wikipedia.org/wiki/Zürich_Oerlikon_railway_station">Zürich Oerlikon railway station</a>]]></description>
		</Placemark>
		<Placemark>
			<name><![CDATA[Zürich Rehalp railway station]]></name>
			<Point>
				<coordinates>8.58338,47.35103,0</coordinates>
			</Point>
			<Snippet></Snippet>
			<description><![CDATA[<br>Source: Wikipedia article <a href="https://en.wikipedia.org/wiki/Zürich_Rehalp_railway_station">Zürich Rehalp railway station</a>]]></description>
		</Placemark>
		<Placemark>
			<name><![CDATA[Zürich Saalsporthalle railway station]]></name>
			<Point>
				<coordinates>8.5218,47.3579,0</coordinates>
			</Point>
			<Snippet></Snippet>
			<description><![CDATA[<br>Source: Wikipedia article <a href="https://en.wikipedia.org/wiki/Zürich_Saalsporthalle_railway_station">Zürich Saalsporthalle railway station</a>]]></description>
		</Placemark>
		<Placemark>
			<name><![CDATA[Zürich Schweighof railway station]]></name>
			<Point>
				<coordinates>8.5033,47.365,0</coordinates>
			</Point>
			<Snippet></Snippet>
			<description><![CDATA[<br>Source: Wikipedia article <a href="https://en.wikipedia.org/wiki/Zürich_Schweighof_railway_station">Zürich Schweighof railway station</a>]]></description>
		</Placemark>
		<Placemark>
			<name><![CDATA[Zürich Seebach railway station]]></name>
			<Point>
				<coordinates>8.544,47.4186,0</coordinates>
			</Point>
			<Snippet></Snippet>
			<description><![CDATA[<br>Source: Wikipedia article <a href="https://en.wikipedia.org/wiki/Zürich_Seebach_railway_station">Zürich Seebach railway station</a>]]></description>
		</Placemark>
		<Placemark>
			<name><![CDATA[Zürich Selnau railway station]]></name>
			<Point>
				<coordinates>8.5321,47.3729,0</coordinates>
			</Point>
			<Snippet></Snippet>
			<description><![CDATA[<br>Source: Wikipedia article <a href="https://en.wikipedia.org/wiki/Zürich_Selnau_railway_station">Zürich Selnau railway station</a>]]></description>
		</Placemark>
		<Placemark>
			<name><![CDATA[Zürich Stadelhofen railway station]]></name>
			<Point>
				<coordinates>8.54861111111111,47.3666666666667,0</coordinates>
			</Point>
			<Snippet></Snippet>
			<description><![CDATA[<br>Source: Wikipedia article <a href="https://en.wikipedia.org/wiki/Zürich_Stadelhofen_railway_station">Zürich Stadelhofen railway station</a>]]></description>
		</Placemark>
		<Placemark>
			<name><![CDATA[Zürich Tiefenbrunnen railway station]]></name>
			<Point>
				<coordinates>8.5613,47.3501,0</coordinates>
			</Point>
			<Snippet></Snippet>
			<description><![CDATA[<br>Source: Wikipedia article <a href="https://en.wikipedia.org/wiki/Zürich_Tiefenbrunnen_railway_station">Zürich Tiefenbrunnen railway station</a>]]></description>
		</Placemark>
		<Placemark>
			<name><![CDATA[Zürich Triemli railway station]]></name>
			<Point>
				<coordinates>8.4952,47.365,0</coordinates>
			</Point>
			<Snippet></Snippet>
			<description><![CDATA[<br>Source: Wikipedia article <a href="https://en.wikipedia.org/wiki/Zürich_Triemli_railway_station">Zürich Triemli railway station</a>]]></description>
		</Placemark>
		<Placemark>
			<name><![CDATA[Zürich Wiedikon railway station]]></name>
			<Point>
				<coordinates>8.5236,47.3714,0</coordinates>
			</Point>
			<Snippet></Snippet>
			<description><![CDATA[<br>Source: Wikipedia article <a href="https://en.wikipedia.org/wiki/Zürich_Wiedikon_railway_station">Zürich Wiedikon railway station</a>]]></description>
		</Placemark>
		<Placemark>
			<name><![CDATA[Zürich Wipkingen railway station]]></name>
			<Point>
				<coordinates>8.5291,47.392,0</coordinates>
			</Point>
			<Snippet></Snippet>
			<description><![CDATA[<br>Source: Wikipedia article <a href="https://en.wikipedia.org/wiki/Zürich_Wipkingen_railway_station">Zürich Wipkingen railway station</a>]]></description>
		</Placemark>
		<Placemark>
			<name><![CDATA[Zürich Wollishofen railway station]]></name>
			<Point>
				<coordinates>8.5338,47.3478,0</coordinates>
			</Point>
			<Snippet></Snippet>
			<description><![CDATA[<br>Source: Wikipedia article <a href="https://en.wikipedia.org/wiki/Zürich_Wollishofen_railway_station">Zürich Wollishofen railway station</a>]]></description>
		</Placemark>
</Document>
</kml>
